[
  {
    "name": "swvsd",
    "phone": "vsdvsd",
    "address": "vsdv",
    "date": "2025-08-04T08:06:20.969Z",
    "done": true
  },
  {
    "name": "ثقفاقفا",
    "phone": "قفاقفا",
    "address": "قفاقفا",
    "location": {
      "lat": 52.359026,
      "lng": 4.9611967
    },
    "date": "2025-08-04T08:15:30.028Z",
    "done": true
  },
  {
    "name": "قفاقفا",
    "phone": "قفاقفا",
    "address": "قفاقفا",
    "location": {
      "lat": 52.359026,
      "lng": 4.9611967
    },
    "date": "2025-08-04T08:15:46.998Z",
    "done": true
  },
  {
    "name": "efef",
    "phone": "efef",
    "address": "efef",
    "location": {
      "lat": 52.359026,
      "lng": 4.9611967
    },
    "date": "2025-08-04T09:03:33.137Z"
  },
  {
    "name": "edvfwsev",
    "phone": "sdvs",
    "address": "dvsdv",
    "location": null,
    "date": "2025-08-04T09:25:24.549Z"
  },
  {
    "name": "vsdv",
    "phone": "sdvsd",
    "address": "vsdvsd",
    "location": null,
    "date": "2025-08-04T09:26:08.698Z"
  },
  {
    "name": "سیر",
    "phone": "سیرسیر",
    "address": "سیرسیر",
    "location": {
      "lat": 33.4797901,
      "lng": 48.4121675
    },
    "date": "2025-08-04T09:47:39.217Z"
  },
  {
    "name": "sdfsd",
    "phone": "fsdfs",
    "address": "dfsdf",
    "location": null,
    "date": "2025-08-04T09:50:50.931Z"
  }
]